City_ID,City,Country,Cloudiness,Date,Humidity,Lat,Lng,Max Temp,Wind Speed
0,itoman,JP,75,1572505884,69,26.12,127.67,78.8,16.11
1,busselton,AU,51,1572505884,36,-33.64,115.35,60.01,29.15
2,victoria,BN,75,1572505884,74,5.28,115.24,86.0,3.36
3,pisco,PE,64,1572505885,82,-13.71,-76.2,61.0,1.05
4,vaini,IN,75,1572505885,69,15.34,74.49,78.8,13.87
5,qaanaaq,GL,100,1572505885,68,77.48,-69.36,9.72,10.4
6,georgetown,GY,20,1572505885,100,6.8,-58.16,75.2,2.24
7,rio gallegos,AR,65,1572505885,54,-51.62,-69.22,53.6,13.87
8,bambous virieux,MU,40,1572505885,61,-20.34,57.76,79.0,9.17
9,chuy,UY,53,1572505885,84,-33.69,-53.46,57.83,11.59
10,bredasdorp,ZA,17,1572505885,59,-34.53,20.04,63.0,9.17
11,port macquarie,AU,38,1572505886,53,-31.43,152.91,77.0,18.34
12,beringovskiy,RU,62,1572505886,57,63.05,179.32,28.9,2.59
13,karachi,PK,20,1572505865,41,24.87,67.03,91.4,3.0
14,pundaguitan,PH,72,1572505886,72,6.37,126.17,82.08,3.18
15,rikitea,PF,0,1572505886,74,-23.12,-134.97,71.8,10.11
16,mataura,NZ,100,1572505886,84,-46.19,168.86,50.0,18.99
17,tuktoyaktuk,CA,92,1572505886,90,69.44,-133.03,29.37,22.28
18,nome,US,90,1572505886,93,30.04,-94.42,48.2,18.34
19,sao filipe,CV,0,1572505887,58,14.9,-24.5,79.48,8.01
20,opuwo,NA,97,1572505887,33,-18.06,13.84,75.97,3.38
21,beaverlodge,CA,40,1572505887,74,55.21,-119.43,35.6,19.46
22,puerto baquerizo moreno,EC,88,1572505887,89,-0.9,-89.6,69.94,12.24
23,ushuaia,AR,92,1572505613,43,-54.81,-68.31,50.0,16.11
24,wiarton,CA,90,1572505887,100,44.74,-81.13,43.0,10.29
25,hoi an,VN,90,1572505887,88,15.88,108.33,78.8,2.24
26,praia,BR,100,1572505888,77,-20.25,-43.81,69.8,1.16
27,qaqortoq,GL,100,1572505888,65,60.72,-46.03,41.0,18.34
28,khatanga,RU,100,1572505888,95,71.98,102.47,2.95,5.23
29,peruibe,BR,65,1572505888,81,-24.32,-47.0,74.3,8.57
30,jamestown,AU,3,1572505888,19,-33.21,138.6,86.85,15.79
31,ceres,BR,48,1572505888,88,-15.31,-49.6,68.14,4.12
32,bethel,US,1,1572505888,85,60.79,-161.76,28.4,13.87
33,hobart,AU,87,1572505854,49,-42.88,147.33,78.01,13.87
34,silao,MX,75,1572505889,87,20.94,-101.43,62.01,0.94
35,provideniya,RU,20,1572505889,74,64.42,-173.23,28.4,3.49
36,atuona,PF,65,1572505889,70,-9.8,-139.03,80.08,11.52
37,padang,ID,94,1572505889,96,-0.92,100.36,70.74,3.2
38,rimavska sobota,SK,0,1572505709,62,48.38,20.02,25.0,1.01
39,husavik,CA,84,1572505889,87,50.56,-96.99,21.99,9.22
40,port alfred,ZA,88,1572505890,94,-33.59,26.89,57.0,7.76
41,norman wells,CA,75,1572505890,92,65.28,-126.83,15.8,4.7
42,mahebourg,MU,40,1572505890,61,-20.41,57.7,79.0,9.17
43,souillac,FR,90,1572505890,93,45.6,-0.6,59.0,6.93
44,dowa,CN,100,1572505890,68,31.0,94.93,32.43,3.44
45,plettenberg bay,ZA,19,1572505890,74,-34.05,23.37,57.33,0.29
46,pierre,US,1,1572505890,72,44.37,-100.35,21.0,4.7
47,hofn,IS,49,1572505891,79,64.25,-15.21,46.06,22.5
48,kaitangata,NZ,100,1572505891,71,-46.28,169.85,48.99,11.01
49,baykit,RU,93,1572505891,87,61.68,96.39,15.06,1.66
50,tanete,ID,77,1572505891,36,-3.94,119.78,97.2,10.09
51,tasiilaq,GL,0,1572505891,68,65.61,-37.64,28.4,5.82
52,saraland,US,90,1572505891,100,30.82,-88.07,75.2,3.36
53,atar,MR,0,1572505891,25,20.52,-13.05,75.18,9.6
54,kurchum,KZ,80,1572505891,52,48.57,83.65,52.23,9.71
55,kavaratti,IN,100,1572505891,79,10.57,72.64,79.88,39.03
56,belaya gora,RU,0,1572505892,99,68.54,146.19,-5.3,0.54
57,nicoya,CR,98,1572505892,1,10.15,-85.45,72.0,1.36
58,hasaki,JP,75,1572505892,72,35.73,140.83,68.0,8.05
59,elko,US,1,1572505892,40,40.83,-115.76,24.01,3.36
60,san patricio,PY,75,1572505892,95,-26.98,-56.83,73.31,9.04
61,samarai,PG,62,1572505892,87,-10.62,150.67,77.88,8.25
62,riyadh,SA,66,1572505612,69,24.63,46.72,75.2,6.93
63,santa maria,BR,20,1572505892,73,-16.02,-48.01,69.8,4.7
64,umm kaddadah,SD,0,1572505893,20,13.6,26.69,77.7,17.56
65,moree,AU,100,1572505893,26,-29.46,149.84,84.2,10.29
66,norden,DE,0,1572505893,100,53.59,7.21,33.01,4.7
67,butaritari,KI,100,1572505893,70,3.07,172.79,84.76,9.57
68,puerto ayora,EC,29,1572505893,94,-0.74,-90.35,68.0,1.99
69,savelugu,GH,38,1572505893,89,9.63,-0.83,75.25,4.18
70,cahors,FR,100,1572505893,99,44.45,1.44,59.0,6.8
71,hermanus,ZA,0,1572505893,68,-34.42,19.24,64.0,13.0
72,araouane,ML,0,1572505894,30,18.9,-3.53,69.08,12.64
73,albany,US,90,1572505829,87,42.65,-73.75,60.8,9.17
74,necochea,AR,0,1572505894,97,-38.55,-58.74,45.0,1.01
75,nkhotakota,MW,3,1572505683,60,-12.93,34.3,80.11,11.99
76,vilhena,BR,57,1572505894,75,-12.74,-60.15,72.99,1.95
77,lompoc,US,1,1572505894,56,34.64,-120.46,54.0,4.7
78,tiksi,RU,38,1572505894,98,71.64,128.87,-3.56,1.07
79,abu dhabi,AE,0,1572505732,43,24.47,54.37,87.8,6.93
80,lebu,ET,45,1572505895,39,8.96,38.73,64.4,10.29
81,nikolskoye,RU,26,1572505895,80,59.7,30.79,30.99,11.18
82,yellowknife,CA,90,1572505634,92,62.45,-114.38,24.01,2.24
83,punta arenas,CL,100,1572505895,65,-53.16,-70.91,48.2,13.87
84,kapaa,US,40,1572505758,94,22.08,-159.32,75.2,6.93
85,upernavik,GL,100,1572505895,72,72.79,-56.15,21.2,5.73
86,harper,US,1,1572505895,80,30.3,-99.24,36.0,18.34
87,saint george,GR,90,1572505895,93,39.45,22.34,62.6,2.64
88,buzmeyin,TM,90,1572505896,72,38.05,58.21,59.0,9.17
89,cabo san lucas,MX,40,1572505719,78,22.89,-109.91,75.99,4.7
90,cidreira,BR,100,1572505896,94,-30.17,-50.22,70.47,1.14
91,jiujiang,CN,38,1572505896,21,29.73,115.99,76.41,4.72
92,new norfolk,AU,65,1572505896,49,-42.78,147.06,78.01,13.87
93,bereda,ES,95,1572505896,93,43.27,-7.54,64.0,1.12
94,thinadhoo,MV,100,1572505896,80,0.53,72.93,81.34,13.29
95,chikwawa,MW,0,1572505896,61,-16.03,34.79,78.8,5.82
96,makakilo city,US,1,1572505897,88,21.35,-158.09,78.8,3.36
97,luderitz,NA,0,1572505897,67,-26.65,15.16,59.0,3.36
98,celestun,MX,60,1572505897,79,20.87,-90.4,81.28,14.74
99,skjervoy,NO,20,1572505897,73,70.03,20.97,30.2,21.92
100,ponta delgada,PT,75,1572505746,94,37.73,-25.67,69.8,18.34
101,hithadhoo,MV,100,1572505840,79,-0.6,73.08,81.43,14.12
102,pevek,RU,100,1572505897,92,69.7,170.27,11.52,6.15
103,sabang,PH,100,1572505897,67,13.8,121.11,84.22,10.6
104,kawalu,ID,42,1572505898,45,-7.38,108.21,86.95,9.57
105,sorland,NO,40,1572505898,60,67.67,12.69,39.2,27.34
106,uige,AO,94,1572505898,93,-7.61,15.06,69.3,1.48
107,bluff,AU,14,1572505898,38,-23.58,149.07,82.56,26.35
108,aklavik,CA,75,1572505898,92,68.22,-135.01,30.2,5.82
109,ust-kuyga,RU,57,1572505898,100,70.0,135.55,-10.92,4.7
110,lasa,CY,20,1572505898,60,34.92,32.53,71.6,4.7
111,alyangula,AU,72,1572505899,62,-13.85,136.42,87.8,8.05
112,antofagasta,CL,90,1572505899,82,-23.65,-70.4,59.0,4.7
113,japura,ID,77,1572505899,69,-0.42,102.29,87.51,2.42
114,urengoy,RU,91,1572505899,92,65.96,78.37,11.08,11.77
115,ilulissat,GL,78,1572505899,62,69.22,-51.1,23.0,6.93
116,kijang,KR,0,1572505899,26,35.24,129.21,69.8,6.93
117,hilo,US,90,1572505899,83,19.71,-155.08,77.0,3.36
118,minas novas,BR,4,1572505900,89,-17.22,-42.59,65.7,2.21
119,ribeira grande,PT,95,1572505900,88,38.52,-28.7,67.23,21.9
120,champerico,MX,99,1572505900,93,16.38,-93.6,66.45,0.58
121,ranong,TH,75,1572505900,79,9.96,98.62,86.0,4.7
122,curumani,CO,100,1572505900,90,9.2,-73.54,68.77,3.78
123,clyde river,CA,90,1572505900,100,70.47,-68.59,26.6,8.05
124,poim,RU,100,1572505900,67,53.03,43.19,26.83,17.2
125,hovd,NO,75,1572505900,80,63.83,10.7,44.01,13.87
126,gangapur,IN,75,1572505901,65,19.7,75.01,82.4,4.7
127,flin flon,CA,100,1572505901,88,54.77,-101.88,21.24,6.98
128,codrington,AU,80,1572505901,33,-28.95,153.24,77.0,17.22
129,hohhot,CN,0,1572505901,24,40.81,111.65,57.2,2.24
130,warrington,GB,20,1572505901,100,53.39,-2.59,43.0,11.41
131,campbell river,CA,75,1572505901,86,50.02,-125.24,39.2,5.53
132,kisangani,CD,75,1572505901,94,0.52,25.21,73.4,4.7
133,ron,IN,89,1572505901,77,15.7,75.73,75.56,15.57
134,constantine,DZ,40,1572505902,93,36.36,6.61,48.2,1.57
135,porto-vecchio,FR,17,1572505742,88,41.59,9.28,62.6,5.82
136,avarua,CK,100,1572505903,94,-21.21,-159.78,75.2,16.11
137,barrow,AR,0,1572505903,58,-38.31,-60.23,44.04,7.2
138,ancud,CL,90,1572505903,87,-41.87,-73.83,44.6,5.82
139,magway,MM,83,1572505904,54,20.15,94.92,90.0,2.91
140,tuatapere,NZ,100,1572505904,84,-46.13,167.69,50.0,18.99
141,sao lourenco do sul,BR,100,1572505904,97,-31.37,-51.98,67.82,10.96
142,oranjemund,ZA,0,1572505905,36,-28.55,16.43,64.76,3.67
143,vila franca do campo,PT,75,1572505905,94,37.72,-25.43,69.8,18.34
144,dikson,RU,96,1572505905,87,73.51,80.55,1.13,3.51
145,dauphin,CA,40,1572505905,62,51.15,-100.04,21.2,6.93
146,los llanos de aridane,ES,0,1572505905,83,28.66,-17.92,71.6,9.17
147,bagdarin,RU,0,1572505906,48,54.44,113.59,18.05,4.27
148,tecoanapa,MX,40,1572505906,88,16.99,-99.26,80.6,4.7
149,itacarambi,BR,5,1572505906,61,-15.1,-44.09,69.31,1.88
150,labuan,BN,75,1572505643,74,5.28,115.24,86.0,3.36
151,dasoguz,TM,30,1572505906,59,41.84,59.97,60.8,6.93
152,dicabisagan,PH,61,1572505906,83,17.08,122.42,80.22,12.28
153,mar del plata,AR,100,1572505906,43,-46.43,-67.52,54.72,10.11
154,quatre cocos,MU,40,1572505906,61,-20.21,57.76,79.0,9.17
155,cape town,ZA,0,1572505651,59,-33.93,18.42,64.0,11.41
156,vao,EE,99,1572505907,95,59.1,26.19,34.65,8.19
157,magadan,RU,100,1572505907,80,59.56,150.8,35.29,21.61
158,bainbridge,US,90,1572505907,94,30.9,-84.58,77.0,8.05
159,san rafael del sur,NI,20,1572505907,94,11.85,-86.44,75.2,4.7
160,horta,BR,40,1572505907,83,-10.93,-37.66,77.0,9.17
161,itaituba,BR,100,1572505908,98,-4.26,-55.99,72.01,1.83
162,morros,BR,10,1572505908,83,-2.87,-44.04,78.8,10.29
163,simao,CN,50,1572505908,54,22.76,100.79,73.44,2.57
164,iquitos,PE,30,1572505908,94,-3.75,-73.25,75.2,1.52
165,nyurba,RU,100,1572505908,84,63.29,118.35,16.39,10.92
166,gold coast,AU,23,1572505908,56,-28.0,153.41,75.99,9.17
167,rehti,IN,20,1572505909,55,22.74,77.43,86.0,1.12
168,chiusi,IT,70,1572505909,93,43.02,11.95,59.0,1.45
169,saint-pierre,FR,90,1572505909,100,48.95,4.24,46.4,8.05
170,saint-augustin,CA,90,1572505909,100,45.63,-73.98,51.01,8.05
171,narsaq,GL,100,1572505909,65,60.91,-46.05,41.0,18.34
172,rosita,NI,36,1572505909,98,13.92,-84.4,69.75,2.28
173,zhigansk,RU,100,1572505909,68,66.77,123.37,19.04,4.5
174,vila velha,BR,40,1572505909,69,-3.71,-38.6,78.8,11.41
175,bud,NO,75,1572505909,100,62.91,6.91,42.8,4.7
176,fairbanks,US,20,1572505910,92,64.84,-147.72,23.0,4.7
177,valleyview,CA,88,1572505910,77,55.07,-117.28,32.32,9.91
178,saint-philippe,CA,90,1572505910,100,45.36,-73.48,51.01,8.05
179,thompson,CA,90,1572505910,92,55.74,-97.86,23.0,5.82
180,burnie,AU,98,1572505910,53,-41.05,145.91,77.0,4.45
181,east london,ZA,40,1572505910,63,-33.02,27.91,64.4,10.29
182,trincomalee,LK,100,1572505910,78,8.58,81.23,82.99,6.49
183,talnakh,RU,40,1572505911,85,69.49,88.39,10.4,8.95
184,khorixas,NA,22,1572505911,21,-20.37,14.96,74.37,2.15
185,hambantota,LK,40,1572505911,74,6.12,81.12,86.0,8.05
186,wicklow,IE,90,1572505911,93,53.0,-6.42,48.2,8.05
187,cherskiy,RU,86,1572505911,100,68.75,161.3,-5.79,1.03
188,tulun,RU,99,1572505911,63,54.56,100.58,38.07,5.82
189,north myrtle beach,US,40,1572505911,88,33.83,-78.68,75.99,6.93
190,dwarka,IN,20,1572505911,45,28.58,77.04,84.2,5.82
191,nelson bay,AU,62,1572505912,57,-32.72,152.14,77.0,12.75
192,mo i rana,NO,40,1572505912,86,66.32,14.15,33.8,6.93
193,turochak,RU,33,1572505912,61,52.26,87.12,53.67,1.74
194,castro,CL,90,1572505912,87,-42.48,-73.76,44.6,5.82
195,port hardy,CA,90,1572505912,100,50.7,-127.42,41.0,3.36
196,tateyama,JP,20,1572505912,53,36.66,137.31,71.6,9.17
197,faanui,PF,1,1572505913,82,-16.48,-151.75,79.45,17.9
198,tamandare,BR,45,1572505913,86,-8.28,-70.75,72.91,2.28
199,geraldton,CA,90,1572505913,68,49.72,-86.95,24.8,6.93
200,mukhen,RU,100,1572505913,94,48.19,136.14,40.32,5.14
201,severo-kurilsk,RU,100,1572505913,99,50.68,156.12,40.3,4.16
202,college,US,20,1572505913,92,64.86,-147.8,23.0,4.7
203,port hedland,AU,45,1572505914,28,-20.31,118.58,95.0,20.8
204,ahipara,NZ,0,1572505914,83,-35.17,173.16,55.99,1.01
205,kulhudhuffushi,MV,99,1572505915,74,6.62,73.07,82.69,10.51
206,belgrade,RS,100,1572505788,93,44.82,20.46,39.2,4.7
207,wagar,US,76,1572505915,90,31.44,-87.99,71.01,4.99
208,leshukonskoye,RU,83,1572505915,95,64.9,45.76,20.64,3.91
209,melito di porto salvo,IT,20,1572505915,82,37.92,15.77,68.0,8.05
210,grindavik,IS,90,1572505915,93,63.84,-22.43,41.0,12.75
211,kerman,IR,40,1572505897,19,30.29,57.06,69.8,16.11
212,salalah,OM,48,1572505915,62,17.01,54.1,87.8,9.17
213,oistins,BB,20,1572505916,78,13.07,-59.53,82.4,14.99
214,miles city,US,1,1572505916,72,46.41,-105.84,24.01,8.05
215,airai,TL,22,1572505916,51,-8.93,125.41,79.48,6.93
216,chokurdakh,RU,27,1572505916,97,70.62,147.9,-7.88,7.38
217,imbituba,BR,20,1572505916,88,-28.24,-48.67,71.6,16.11
218,marawi,PH,89,1572505916,83,8.0,124.29,82.0,5.01
219,dingle,PH,65,1572505916,80,11.0,122.67,82.49,10.25
220,turayf,SA,0,1572505916,68,31.68,38.65,66.2,9.17
221,koslan,RU,93,1572505917,86,63.46,48.9,22.75,4.56
222,saskylakh,RU,100,1572505917,92,71.97,114.09,-1.27,7.23
223,ponta do sol,BR,100,1572505917,96,-20.63,-46.0,63.41,5.93
224,puerto lleras,CO,95,1572505917,91,8.16,-72.46,70.2,1.72
225,vestmanna,FO,100,1572505917,81,62.16,-7.17,42.8,8.05
226,pauini,BR,100,1572505917,98,-7.71,-67.0,73.38,2.64
227,san quintin,PH,63,1572505917,68,17.54,120.52,85.1,6.11
228,moskovskiy,RU,75,1572505917,73,55.6,37.35,28.99,13.42
229,kamenka,MD,32,1572505918,86,48.03,28.7,30.99,4.0
230,kavieng,PG,90,1572505918,62,-2.57,150.8,85.96,5.44
231,constitucion,MX,0,1572505918,63,23.99,-104.67,55.0,8.01
232,dilla,ET,9,1572505918,62,6.41,38.31,60.28,3.8
233,garowe,SO,83,1572505918,51,8.41,48.48,79.39,3.04
234,axim,GH,25,1572505918,96,4.87,-2.24,72.99,0.29
235,vilyuysk,RU,100,1572505918,87,63.75,121.63,18.73,13.98
236,bacolod,PH,52,1572505919,82,10.68,122.95,81.52,8.46
237,kailua,US,40,1572505919,83,21.39,-157.74,78.8,2.86
238,west wendover,US,1,1572505919,67,40.74,-114.07,17.6,3.36
239,garhi yasin,PK,40,1572505919,43,27.91,68.51,89.6,5.32
240,richards bay,ZA,80,1572505919,90,-28.77,32.06,65.86,17.54
241,sokoto,NG,1,1572505919,50,13.06,5.24,77.31,4.61
242,hoa binh,VN,100,1572505920,39,20.81,105.34,80.6,6.93
243,leningradskiy,RU,33,1572505920,60,69.38,178.42,15.78,2.91
244,the valley,AI,20,1572505920,74,18.22,-63.06,81.0,5.82
245,mayo,CA,90,1572505920,92,63.59,-135.9,26.6,2.17
246,klaksvik,FO,100,1572505920,81,62.23,-6.59,42.8,8.05
247,chifeng,CN,33,1572505920,23,42.27,118.96,55.69,16.82
248,boralday,KZ,75,1572505920,25,43.36,76.86,66.2,4.47
249,arlit,NE,90,1572505921,14,18.74,7.39,85.03,2.73
250,hami,CN,0,1572505921,16,42.84,93.51,60.22,3.29
251,matagami,NG,36,1572505921,77,9.67,8.4,68.45,3.47
252,havoysund,NO,20,1572505921,79,71.0,24.66,26.6,18.34
253,rosarito,CO,80,1572505921,88,4.91,-75.23,62.91,5.61
254,missoula,US,1,1572505921,85,46.87,-114.0,17.6,3.36
255,mufumbwe,ZM,0,1572505921,72,-13.68,24.8,71.89,3.91
256,jalu,LY,0,1572505922,42,29.03,21.55,69.85,8.68
257,barcelos,BR,67,1572505922,91,-0.97,-62.93,74.59,1.95
258,ostrovnoy,RU,69,1572505922,94,68.05,39.51,8.2,7.58
259,the pas,CA,90,1572505923,67,53.82,-101.24,23.0,8.05
260,nanortalik,GL,100,1572505923,90,60.14,-45.24,36.28,26.6
261,serenje,ZM,0,1572505924,21,-13.23,30.22,83.01,9.78
262,zakamensk,RU,67,1572505925,62,50.38,103.29,41.31,0.92
263,apastovo,RU,75,1572505925,68,55.2,48.51,30.2,6.71
264,kloulklubed,PW,75,1572505925,70,7.04,134.26,86.0,6.93
265,pucallpa,PE,75,1572505925,88,-8.38,-74.54,75.2,1.07
266,seredka,RU,66,1572505925,91,58.06,38.14,20.97,7.36
267,margate,AU,87,1572505925,49,-43.03,147.26,78.01,13.87
268,sambava,MG,24,1572505925,50,-14.27,50.17,83.91,5.37
269,rosa zarate,EC,100,1572505926,94,0.33,-79.47,71.71,1.52
270,barabai,ID,98,1572505926,41,-2.59,115.38,94.69,1.99
271,kamiiso,JP,75,1572505926,77,41.82,140.65,62.6,11.41
272,turukhansk,RU,100,1572505926,94,65.8,87.96,15.58,13.02
273,gat,SN,0,1572505926,36,14.69,-16.54,77.0,6.93
274,maniitsoq,GL,100,1572505926,62,65.42,-52.9,35.24,12.82
275,jabinyanah,TN,20,1572505926,93,35.03,10.91,60.8,4.7
276,altagracia de orituco,VE,99,1572505927,99,9.86,-66.38,67.86,1.92
277,catalao,BR,100,1572505927,90,-18.17,-47.95,67.82,4.21
278,faya,SA,5,1572505927,16,18.39,42.45,75.2,8.05
279,carnarvon,ZA,2,1572505927,31,-30.97,22.13,56.39,11.7
280,guozhen,CN,99,1572505927,21,29.3,113.14,79.03,5.1
281,new plymouth,NZ,0,1572505927,65,-39.06,174.08,55.0,18.01
282,clifton,US,90,1572505927,100,40.86,-74.16,62.6,6.93
283,nishihara,JP,75,1572505928,72,35.74,139.53,73.0,4.7
284,egvekinot,RU,0,1572505928,84,66.32,-179.17,5.14,2.17
285,kodinsk,RU,100,1572505928,86,58.6,99.18,26.01,4.47
286,mwinilunga,ZM,89,1572505928,77,-11.73,24.43,69.78,3.31
287,jiuquan,CN,70,1572505928,23,39.73,98.49,46.45,3.44
288,smithers,CA,90,1572505928,86,54.78,-127.17,33.8,3.36
289,coihaique,CL,94,1572505929,70,-45.58,-72.07,46.4,3.36
290,nemuro,JP,75,1572505724,47,43.32,145.57,59.0,14.99
291,kalmunai,LK,74,1572505930,80,7.42,81.82,81.48,16.35
292,chapais,CA,90,1572505930,80,49.78,-74.86,32.0,3.36
293,lorengau,PG,47,1572505930,69,-2.02,147.27,84.43,6.04
294,ishigaki,JP,40,1572505930,74,24.34,124.16,82.4,18.34
295,puerto ayacucho,CO,8,1572505930,95,5.66,-67.63,71.87,2.64
296,arraial do cabo,BR,93,1572505931,90,-22.97,-42.02,73.69,23.85
297,znamenskoye,RU,77,1572505931,66,57.13,73.82,29.19,8.1
298,torbay,CA,5,1572505931,93,47.66,-52.73,43.0,14.99
299,garissa,KE,100,1572505931,63,-0.46,39.64,82.69,11.23
300,half moon bay,US,1,1572505931,30,37.46,-122.43,57.99,4.7
301,nizhniy kuranakh,RU,100,1572505931,77,58.84,125.49,19.09,11.77
302,bandarbeyla,SO,23,1572505931,67,9.49,50.81,79.77,8.5
303,dunedin,NZ,93,1572505932,87,-45.87,170.5,48.0,25.99
304,shihezi,CN,0,1572505932,26,44.3,86.03,61.7,2.46
305,temirgoyevskaya,RU,91,1572505932,58,45.11,40.28,41.02,4.85
306,mehamn,NO,42,1572505932,72,71.03,27.85,17.6,11.41
307,esperance,AU,75,1572505932,29,-33.86,121.89,66.2,26.4
308,zyryanskoye,RU,100,1572505932,70,56.83,86.62,31.35,3.85
309,balclutha,NZ,100,1572505932,71,-46.24,169.74,48.99,15.01
310,lata,IN,0,1572505932,40,30.78,78.62,39.24,9.53
311,gazanjyk,TM,0,1572505932,58,39.24,55.52,60.35,4.52
312,lazaro cardenas,MX,51,1572505933,39,28.39,-105.62,51.01,5.01
313,srandakan,ID,70,1572505933,54,-7.94,110.25,87.8,15.52
314,port blair,IN,86,1572505933,70,11.67,92.75,84.65,6.42
315,gasa,BT,97,1572505933,79,27.91,89.73,31.5,8.28
316,derzhavinsk,KZ,91,1572505933,45,51.1,66.31,52.93,16.89
317,pangnirtung,CA,99,1572505933,76,66.15,-65.72,25.86,7.29
318,fengxian,CN,100,1572505934,71,33.91,106.52,53.01,0.92
319,avera,US,90,1572505934,88,33.19,-82.53,75.2,10.29
320,paamiut,GL,100,1572505934,79,61.99,-49.67,37.6,13.29
321,tucurui,BR,77,1572505934,85,-3.77,-49.67,76.12,5.44
322,emba,CY,20,1572505934,60,34.81,32.42,71.6,4.7
323,inza,RU,100,1572505935,82,53.86,46.36,25.03,13.89
324,lubbock,US,1,1572505935,78,33.58,-101.86,21.0,5.82
325,rafaela,AR,11,1572505935,77,-31.25,-61.49,55.99,1.01
326,mahanoro,MG,9,1572505935,79,-19.9,48.8,76.57,2.66
327,dalbandin,PK,0,1572505936,36,28.9,64.41,79.25,7.38
328,brainerd,US,90,1572505682,58,46.36,-94.2,28.0,3.36
329,stutterheim,ZA,40,1572505936,63,-32.57,27.43,64.4,10.29
330,labuhan,ID,98,1572505936,41,-2.54,115.51,94.69,1.99
331,panguna,PG,100,1572505936,95,-6.32,155.48,75.42,1.21
332,rawson,AR,16,1572505936,41,-43.3,-65.11,57.47,15.7
333,kudahuvadhoo,MV,91,1572505936,69,2.67,72.89,82.92,4.76
334,port elizabeth,US,90,1572505937,88,39.31,-74.98,64.99,5.82
335,tessalit,ML,0,1572505937,23,20.2,1.01,67.33,8.97
336,mpika,ZM,25,1572505937,25,-11.84,31.4,77.63,12.33
337,panlaitan,PH,84,1572505937,69,12.12,119.85,85.48,7.63
338,hauterive,CA,90,1572505937,76,49.18,-68.27,39.99,2.24
339,havre-saint-pierre,CA,90,1572505937,86,50.23,-63.6,37.4,5.82
340,bushehr,IR,0,1572505937,51,28.97,50.84,86.0,4.7
341,ketchikan,US,90,1572505937,100,55.34,-131.65,48.2,3.36
342,evensk,RU,100,1572505938,93,61.92,159.24,26.15,2.62
343,flinders,AU,1,1572505938,44,-34.58,150.85,81.0,12.75
344,ambanja,MG,40,1572505938,70,-13.68,48.45,86.0,9.17
345,suicheng,CN,0,1572505938,23,33.9,117.93,77.97,5.55
346,sri aman,MY,75,1572505938,74,1.24,111.46,86.0,1.12
347,murdochville,CA,95,1572505938,82,48.96,-65.49,36.48,1.52
348,kushtagi,IN,78,1572505939,71,15.76,76.19,79.56,16.78
349,murgab,TM,100,1572505939,63,37.5,61.97,62.6,13.87
350,lodja,CD,76,1572505940,82,-3.52,23.6,73.96,1.45
351,lagoa,PT,75,1572505940,100,37.14,-8.45,68.0,8.05
352,biak,ID,0,1572505940,71,-0.91,122.88,81.73,7.94
353,hailar,CN,0,1572505940,34,49.2,119.7,33.82,21.0
354,astoria,US,1,1572505940,74,46.19,-123.83,42.01,5.53
355,iquique,CL,90,1572505940,77,-20.22,-70.14,62.6,2.24
356,riviere-au-renard,CA,90,1572505940,75,49.0,-64.4,44.6,3.09
357,kropotkin,RU,86,1572505941,55,45.43,40.58,42.01,4.27
358,santa cruz,BR,30,1572505851,96,-6.22,-36.02,66.56,5.03
359,mosquera,CO,20,1572505941,87,4.71,-74.23,51.8,6.93
360,corrales,CO,79,1572505941,95,5.83,-72.84,44.02,2.37
361,dharchula,IN,0,1572505941,54,29.85,80.53,54.0,8.01
362,gavle,SE,100,1572505941,62,60.67,17.14,37.99,5.99
363,abhar,IR,0,1572505941,65,36.14,49.22,47.43,3.4
364,cabra,ES,90,1572505942,88,37.47,-4.43,62.6,3.36
365,vanavara,RU,22,1572505942,81,60.35,102.28,20.12,4.25
366,lincoln,GB,20,1572505760,93,53.23,-0.54,42.01,6.93
367,ardesen,TR,75,1572505943,87,41.19,40.99,59.0,9.17
368,zhanaozen,KZ,99,1572505943,56,43.35,52.85,49.98,14.88
369,roald,NO,40,1572505944,87,62.58,6.12,42.8,5.82
370,ballina,IE,90,1572505944,100,54.11,-9.15,46.99,11.41
371,waingapu,ID,2,1572505944,73,-9.65,120.26,82.22,10.02
372,humaita,AR,100,1572505945,72,-24.93,-65.37,66.2,10.29
373,fortuna,US,1,1572505945,37,40.6,-124.16,44.6,11.41
374,bartica,GY,20,1572505945,100,6.41,-58.62,75.2,2.24
375,hirara,JP,40,1572505945,69,24.8,125.28,82.4,17.22
376,vanimo,PG,35,1572505945,68,-2.67,141.3,84.22,5.39
377,broken hill,AU,40,1572505945,26,-31.97,141.45,84.2,17.22
378,khash,IR,0,1572505945,40,28.22,61.21,73.31,11.88
379,sept-iles,CA,75,1572505697,66,50.2,-66.38,37.0,5.82
380,ahuimanu,US,40,1572505925,88,21.44,-157.84,77.0,1.23
381,kirgiz-miyaki,RU,97,1572505946,94,53.63,54.8,29.86,10.09
382,merauke,ID,56,1572505946,66,-8.49,140.4,87.12,7.34
383,sao gabriel da cachoeira,BR,62,1572505946,85,-0.13,-67.09,73.78,1.23
384,san juan del sur,NI,97,1572505947,81,11.25,-85.87,80.73,12.91
385,kuntaur,GM,0,1572505947,31,13.67,-14.89,72.73,3.74
386,buraydah,SA,0,1572505947,69,26.33,43.97,77.0,5.82
387,suez,EG,0,1572505947,72,29.97,32.54,70.02,9.86
388,northam,AU,75,1572505949,67,-31.65,116.67,59.0,17.22
389,saint anthony,US,1,1572505949,77,43.97,-111.68,12.99,4.7
390,molteno,ZA,71,1572505949,57,-31.4,26.36,47.05,5.17
391,portland,US,90,1572505949,100,43.66,-70.25,55.99,3.36
392,hoopstad,ZA,0,1572505950,28,-27.83,25.91,60.94,8.01
393,bilibino,RU,100,1572505950,97,68.06,166.44,12.4,2.35
394,lianzhou,CN,77,1572505950,35,24.79,112.38,76.19,7.09
395,kodiak,US,90,1572505950,92,39.95,-94.76,28.4,12.75
396,brae,GB,20,1572505950,93,60.4,-1.35,46.4,4.7
397,aksarka,RU,37,1572505950,86,66.56,67.8,16.07,9.75
398,bambanglipuro,ID,70,1572505950,54,-7.95,110.28,87.8,15.52
399,tarakan,ID,32,1572505736,69,3.3,117.63,85.08,7.54
400,semey,KZ,40,1572505950,57,50.41,80.25,51.8,13.42
401,vardo,US,90,1572505951,100,39.62,-77.74,61.0,3.36
402,lethem,GY,25,1572505951,76,3.38,-59.8,78.26,10.94
403,bosaso,SO,44,1572505951,46,11.28,49.18,89.6,6.51
404,deep river,CA,90,1572505951,100,46.1,-77.49,42.01,5.82
405,cockburn town,TC,29,1572505951,74,21.46,-71.14,81.72,14.79
406,honningsvag,NO,61,1572505794,67,70.98,25.97,27.72,12.5
407,la rioja,AR,0,1572505951,79,-29.41,-66.86,53.35,2.82
408,hamilton,CA,90,1572505952,93,43.26,-79.87,52.0,9.17
409,srednekolymsk,RU,0,1572505952,92,67.46,153.71,-0.55,6.4
410,san pedro de macoris,DO,20,1572505952,94,18.46,-69.3,75.0,4.7
411,chicama,PE,75,1572505952,88,-7.84,-79.15,62.6,6.93
412,oktyabrskoye,RU,90,1572505952,86,56.73,85.44,35.01,4.47
413,campo verde,PE,75,1572505952,88,-8.47,-74.81,75.2,2.04
414,usinsk,RU,100,1572505952,95,66.0,57.56,18.81,8.14
415,katsuura,JP,20,1572505952,60,33.93,134.5,69.8,8.05
416,san cristobal,HN,55,1572505954,95,14.68,-86.92,64.4,2.26
417,shingu,JP,40,1572505954,56,33.72,135.99,69.8,3.36
418,byron bay,AU,57,1572505954,56,-28.65,153.62,77.0,9.17
419,kaffrine,SN,0,1572505954,41,14.1,-15.55,75.2,6.93
420,la grande,US,1,1572505954,57,45.32,-118.09,30.99,3.36
421,barstow,US,1,1572505954,68,31.46,-103.39,30.2,4.7
422,nouadhibou,MR,0,1572505955,60,20.93,-17.03,73.4,13.87
423,longyearbyen,NO,75,1572505955,67,78.22,15.63,19.4,13.87
424,natchez,US,90,1572505955,93,31.56,-91.4,57.99,10.29
425,salinopolis,BR,70,1572505955,77,-0.61,-47.36,81.59,15.7
426,fenoarivo,MG,0,1572505955,36,-18.93,47.44,78.8,6.93
427,touros,BR,20,1572505955,94,-5.2,-35.46,69.8,4.7
428,malgrat de mar,ES,97,1572505955,93,41.65,2.74,66.0,5.82
429,westport,US,90,1572505955,100,41.14,-73.36,62.01,4.7
430,gamba,CN,64,1572505955,45,28.28,88.52,34.84,5.17
431,fujin,CN,89,1572505956,62,47.24,132.03,44.83,24.2
432,iqaluit,CA,90,1572505956,92,63.75,-68.52,23.0,6.93
433,charyshskoye,RU,70,1572505957,51,51.4,83.56,51.26,3.33
434,henties bay,NA,33,1572505957,63,-22.12,14.28,61.5,2.93
435,navrongo,GH,54,1572505957,84,10.89,-1.09,75.88,5.77
436,ganzhou,CN,28,1572505957,29,25.86,114.93,77.7,4.83
437,tautira,PF,20,1572505957,74,-17.73,-149.15,80.6,4.7
438,okhotsk,RU,100,1572505957,92,59.36,143.24,33.57,9.78
439,belmonte,PT,99,1572505957,94,40.36,-7.35,60.01,3.31
440,sao joao da barra,BR,84,1572505957,87,-21.64,-41.05,73.67,15.97
441,yinchuan,CN,51,1572505958,21,38.48,106.21,54.99,5.93
442,kruisfontein,ZA,89,1572505958,80,-34.0,24.73,54.99,3.96
443,leeuwarden,NL,0,1572505958,88,53.2,5.79,39.2,5.82
444,arman,RU,100,1572505958,76,59.7,150.17,36.95,19.3
445,ola,RU,100,1572505958,81,59.58,151.3,34.03,19.04
446,nur,PL,52,1572505958,88,52.67,22.32,32.34,4.18
447,highland springs,US,90,1572505958,100,37.55,-77.33,66.99,8.05
448,tremedal,BR,0,1572505959,92,-14.98,-41.41,62.6,2.44
449,mareeba,AU,40,1572505959,57,-16.99,145.42,82.0,8.05
450,port lincoln,AU,99,1572505959,18,-34.72,135.86,90.91,21.92
451,wahpeton,US,0,1572505959,79,46.27,-96.61,23.0,3.89
452,cabedelo,BR,20,1572505959,88,-6.97,-34.84,71.6,4.7
453,sosnovo-ozerskoye,RU,81,1572505959,51,52.53,111.54,27.0,12.06
454,tarauaca,BR,56,1572505960,88,-8.16,-70.77,71.65,2.06
455,darovskoy,RU,100,1572505960,88,58.77,47.96,21.72,9.24
456,mizan teferi,ET,0,1572505960,60,6.99,35.58,74.17,0.81
457,jieshi,CN,92,1572505960,54,22.82,115.83,82.99,1.01
458,saint-joseph,FR,90,1572505960,87,43.56,6.97,62.6,3.36
459,bandundu,CD,100,1572505960,89,-3.32,17.38,74.08,3.42
460,qinhuangdao,CN,0,1572505960,23,39.94,119.59,70.48,7.76
461,bubaque,GW,0,1572505961,65,11.28,-15.83,83.7,5.5
462,townsville,AU,20,1572505961,65,-19.26,146.82,80.6,18.34
463,kinsale,IE,90,1572505961,100,51.71,-8.52,52.0,10.29
464,veraval,FR,90,1572505961,100,49.65,0.71,48.2,10.29
465,bougouni,ML,13,1572505961,60,11.42,-7.49,74.97,1.95
466,micheweni,TZ,0,1572505961,79,-4.97,39.83,81.34,9.75
467,yenagoa,NG,100,1572505961,93,4.92,6.26,75.27,2.75
468,bunol,ES,95,1572505961,72,39.42,-0.78,69.01,9.17
469,natal,BR,40,1572505962,88,-5.81,-35.21,71.6,3.36
470,general roca,AR,43,1572505963,26,-39.03,-67.58,63.55,24.76
471,ulladulla,AU,2,1572505963,44,-35.36,150.48,81.0,12.75
472,kota tinggi,MY,75,1572505963,52,1.73,103.9,91.4,6.93
473,marmaris,TR,0,1572505964,72,36.85,28.27,71.6,5.82
474,manono,CD,60,1572505965,80,-7.3,27.4,76.48,3.22
475,aykhal,RU,75,1572505965,84,65.95,111.51,6.8,8.95
476,kargat,RU,100,1572505965,87,55.19,80.28,35.8,8.99
477,acapulco,MX,40,1572505891,88,16.86,-99.88,80.6,4.7
478,saint-denis,FR,75,1572505965,93,48.94,2.36,48.99,6.93
479,shubarkuduk,KZ,95,1572505965,61,49.15,56.49,44.24,19.84
480,lavrentiya,RU,18,1572505965,68,65.58,-170.99,27.25,6.67
481,miranda,BR,72,1572505965,49,-20.24,-56.38,81.55,3.18
482,ust-kut,RU,98,1572505966,69,56.78,105.75,23.97,6.98
483,la ronge,CA,90,1572505966,92,55.1,-105.3,26.6,4.7
484,beirut,LB,20,1572505966,47,33.9,35.48,77.0,3.36
485,samut sakhon,TH,95,1572505966,46,13.55,100.27,93.99,5.82
486,ouallam,NE,83,1572505966,40,14.32,2.08,83.98,4.59
487,panjab,AF,98,1572505966,46,34.38,67.02,43.36,9.22
488,young,UY,39,1572505966,93,-32.7,-57.63,57.0,4.0
489,laguna,BZ,40,1572505967,94,16.17,-88.94,77.0,4.7
490,bodden town,KY,78,1572505967,82,19.28,-81.25,82.99,3.0
491,schramberg,DE,90,1572505967,93,48.23,8.39,45.0,5.82
492,houma,CN,0,1572505967,20,35.63,111.36,68.65,4.65
493,gejiu,CN,86,1572505967,53,23.36,103.16,67.73,1.88
494,namibe,AO,78,1572505967,85,-15.19,12.15,72.9,9.6
495,bawku,GH,32,1572505967,78,11.06,-0.24,75.2,5.84
496,husum,DE,73,1572505967,100,54.49,9.05,35.6,2.24
497,mayumba,GA,100,1572505968,86,-3.44,10.65,78.31,10.09
498,mount isa,AU,0,1572505968,10,-20.73,139.49,95.0,8.05
499,rio grande,BR,100,1572505723,94,-32.03,-52.1,66.2,20.76
500,kill,IE,90,1572505968,93,53.25,-6.59,48.2,8.05
501,kimbe,PG,88,1572505968,85,-5.56,150.15,81.28,1.32
502,kangaatsiaq,GL,72,1572505968,73,68.31,-53.46,27.91,15.93
503,matay,EG,0,1572505969,72,28.42,30.79,67.35,13.91
504,bealanana,MG,38,1572505969,27,-14.54,48.75,79.36,9.86
505,alibag,IN,40,1572505969,49,18.64,72.88,93.0,8.05
506,pervomayskoye,RU,100,1572505969,72,57.07,86.23,30.61,4.16
507,kahului,US,40,1572505836,78,20.89,-156.47,78.8,4.7
508,nchelenge,ZM,1,1572505969,70,-9.35,28.74,77.5,1.23
509,mingaora,PK,8,1572505907,38,34.78,72.36,64.49,5.68
510,muros,ES,75,1572505970,100,42.77,-9.06,66.0,5.82
511,rantepao,ID,84,1572505970,84,-2.97,119.9,77.58,2.35
512,vestmannaeyjar,IS,75,1572505970,93,63.44,-20.27,42.8,8.05
513,tanda,IN,0,1572505970,23,31.67,75.63,86.83,2.21
514,victoria point,AU,40,1572505970,60,-27.58,153.3,75.99,13.87
515,antsohihy,MG,7,1572505970,38,-14.88,47.99,88.86,10.45
516,vernon,CA,20,1572505928,85,50.27,-119.27,28.0,3.27
517,biloela,AU,37,1572505971,38,-24.4,150.51,80.33,14.94
518,road town,VG,40,1572505971,74,18.42,-64.62,80.6,10.29
519,nhulunbuy,AU,40,1572505971,58,-12.18,136.78,87.8,12.75
520,payo,ID,16,1572505971,40,-3.75,103.64,87.62,3.27
521,coahuayana,MX,100,1572505971,91,18.62,-100.35,72.16,1.86
522,pokaran,IN,0,1572505971,35,26.93,71.92,89.62,5.19
523,dakar,SN,0,1572505971,36,14.69,-17.45,80.6,6.93
524,arkhara,RU,100,1572505971,97,49.42,130.09,37.2,14.58
525,carlsbad,CZ,75,1572505972,100,50.23,12.87,30.99,5.82
526,ibia,NG,100,1572505972,93,5.18,6.32,75.27,2.75
527,quixeramobim,BR,45,1572505738,93,-5.2,-39.3,68.11,4.0
528,keti bandar,PK,18,1572505972,50,24.14,67.45,89.47,1.19
529,bajos de haina,DO,20,1572505972,94,18.41,-70.03,75.0,4.7
530,haimen,CN,0,1572505972,44,31.87,121.18,79.0,4.5
531,yulara,AU,0,1572505973,4,-25.24,130.99,102.2,11.41
532,sambalpur,IN,72,1572505973,62,21.47,83.98,84.2,5.19
533,poya,NC,36,1572505973,75,-21.35,165.16,71.29,24.61
534,sirjan,IR,0,1572505973,23,29.44,55.67,71.02,13.53
535,banfora,BF,35,1572505973,83,10.64,-4.75,72.36,3.09
536,ushtobe,KZ,83,1572505973,26,45.25,77.98,70.25,9.04
537,khani,GE,75,1572505973,100,41.96,42.96,57.2,4.7
538,te anau,NZ,100,1572505973,78,-45.41,167.72,44.51,9.69
539,zwedru,LR,46,1572505974,99,6.07,-8.13,70.25,0.69
540,wajir,KE,75,1572505974,78,1.75,40.07,80.6,4.7
541,aden,YE,31,1572505974,28,12.79,45.03,89.29,3.15
